{
"type": "FeatureCollection",
"name": "FarmToFork",
"crs": { "type": "name", "properties": { "name": "urn:ogc:def:crs:OGC:1.3:CRS84" } },
"features": [
{ "type": "Feature", "properties": { "NAME": "A Kinder Cup", "ADDRESS": "1503 Admirals Rd, Victoria, BC V9A 7N8", "TYPE": "Food_Bev", "DESCRIPTION": "Café selling coffee, baked goods, and cafe type entrees.", "HOURS": "Mon-Fri (6am - 5pm), Saturday & Sunday (8am - 5pm)", "LINK": "https://www.facebook.com/akindercup/", "CONTACT": "webelong@akindercup.ca" }, "geometry": { "type": "Point", "coordinates": [ -123.42739, 48.44745 ] } },
{ "type": "Feature", "properties": { "NAME": "BABKA", "ADDRESS": "116-832 McCallum Rd, Langford, BC V9B 7A8", "TYPE": "Food_Bev", "DESCRIPTION": "We are a family owned and operated bakery. Our bakery specializes in European pastries and European sourdough bread.", "HOURS": "Saturday & Sunday 10am - 4pm", "LINK": "https://www.facebook.com/share/1FbSSXoPwn/", "CONTACT": "babkabakeryhouse@gmail.com" }, "geometry": { "type": "Point", "coordinates": [ -123.50595, 48.45809 ] } },
{ "type": "Feature", "properties": { "NAME": "Bees Please Farms", "ADDRESS": "4061 Happy Valley Rd, Victoria, BC V9C 3X8", "TYPE": "Farm", "DESCRIPTION": "Farm selling eggs, Liquid honey, Honeycomb", "HOURS": "N/A Sold by appointment, at farm gate. No on site sales.", "LINK": "www.beespleasefarms.com", "CONTACT": "kate@beespleasefarms.com" }, "geometry": { "type": "Point", "coordinates": [ -123.55023, 48.40071 ] } },
{ "type": "Feature", "properties": { "NAME": "Bilston Creek Farm", "ADDRESS": "4185 Metchosin Rd, Victoria, BC V9C 3Z5", "TYPE": "Farm", "DESCRIPTION": "Farm Selling lavender based products for the home, kitchen and body, apple juice, honey.", "HOURS": "Hours vary depending on the season. Latest information available on our website bilston.ca. Sun-Mon-Tue 10-8 June 1 to Aug 19 2025. Sat-Sun 11-5 most weekends in the Spring & Fall. Winter market Fri-Sat-Sun 10-4.", "LINK": "bilston.ca", "CONTACT": "products@bilston.ca" }, "geometry": { "type": "Point", "coordinates": [ -123.52657, 48.3864 ] } },
{ "type": "Feature", "properties": { "NAME": "Blue Haze Farm", "ADDRESS": "3817 Duke Road, Victoria BC, V9C4B2", "TYPE": "Farm", "DESCRIPTION": "We are a small family run farm that offers produce while in season including apples, berries, tomato's, persimmons and figs, and frozen cold pressed UV pasteurized apple juice (while supplies last) year round. We also house bee's for a local keeper and offer their honey and wax for sale while in season.", "HOURS": "Self-serve, daw to dusk", "LINK": "https://islandfarmfresh.com/farm/blue-haze-farm/", "CONTACT": "bluehazefarm@outlook.com" }, "geometry": { "type": "Point", "coordinates": [ -123.50139, 48.38788 ] } },
{ "type": "Feature", "properties": { "NAME": "Broken Paddle Coffee House", "ADDRESS": "4480 Happy Valley Rd, Victoria, BC V9C 3Z3", "TYPE": "Food_Bev", "DESCRIPTION": "Café selling coffee, baked goods, soups and sanglys", "HOURS": "Mon-Fri (8am - 2pm), Sunday (9am - 3pm), closed Saturdays", "LINK": "http://brokenpaddle.ca", "CONTACT": null }, "geometry": { "type": "Point", "coordinates": [ -123.53273, 48.37978 ] } },
{ "type": "Feature", "properties": { "NAME": "Crazy Cookie House", "ADDRESS": "4105 Metchosin Rd, Victoria, BC V9C 3Z6", "TYPE": "Food_Bev", "DESCRIPTION": "Roadside stand selling decked out homemade cookies", "HOURS": "Fri-Sun (9am - EOD)", "LINK": "https://crazycookie.ca", "CONTACT": "helen.mcarthur@morello.ca" }, "geometry": { "type": "Point", "coordinates": [ -123.52556, 48.38982 ] } },
{ "type": "Feature", "properties": { "NAME": "Ewe View Farm", "ADDRESS": "Metchosin, BC", "TYPE": "Farm", "DESCRIPTION": "We breed sheep and raise lamb and pork, selling the meat directly to our community as part of our farm’s direct marketing efforts.", "HOURS": "N/A", "LINK": "https://metchosinonline.com/metchosinbusiness/ewe-view-farm/", "CONTACT": "eweview@telus.net" }, "geometry": { "type": "Point", "coordinates": [ -123.57008, 48.37801 ] } },
{ "type": "Feature", "properties": { "NAME": "Flying Dutchman Market", "ADDRESS": "4569 William Head Rd, Victoria, BC V9C 3Y6", "TYPE": "Market", "DESCRIPTION": "Local produce, eggs, meat, flowers, seeds, hay, baking", "HOURS": "Mon-Fri (12pm-6pm), Saturday & Sundeay (10am-6pm)", "LINK": "https://www.facebook.com/people/Flying-Dutchman-Market/61556780554401/", "CONTACT": "flyingdutchmanmarket@gmail.com" }, "geometry": { "type": "Point", "coordinates": [ -123.53376, 48.37495 ] } },
{ "type": "Feature", "properties": { "NAME": "Four Mile Brew Pub", "ADDRESS": "199 Island Hwy, Victoria, BC V9B 1G1", "TYPE": "Food_Bev", "DESCRIPTION": "Pub food, draft brew, cocktails", "HOURS": "Mon-Sun (11am - 11pm)", "LINK": "https://fourmilehouse.com", "CONTACT": "fourmilehouse@gmail.com" }, "geometry": { "type": "Point", "coordinates": [ -123.43388, 48.45266 ] } },
{ "type": "Feature", "properties": { "NAME": "Gathering Sage Medicinal Herb Farm", "ADDRESS": "4488 William Head Rd, Victoria, BC V9C 3Y6", "TYPE": "Farm", "DESCRIPTION": "medicinal and culinary herbs", "HOURS": "Thu - Sat (10am-4pm)", "LINK": "https://www.facebook.com/people/Gathering-Sage-Medicinal-Herb-Farm/100091439705800/", "CONTACT": "gatheringsagefarm@gmail.com" }, "geometry": { "type": "Point", "coordinates": [ -123.53244, 48.37786 ] } },
{ "type": "Feature", "properties": { "NAME": "Glen Willow Plant Exchange", "ADDRESS": "950 Glen Willow Pl. Its actually in the middle of the cul de sac, in the round about.", "TYPE": "Community_Garden", "DESCRIPTION": "It's a plant exchange that includes plants, seeds, fresh herbs, and any gardening supplies. Please bring something to exchange. It is also in between Glen Willow's Community Gardens, that  is for residents only. Pots, twine, and children's toys are for Community gardens use only. Please leave the jars for fresh herbs at the stand. You can follow my blog every Monday on Facebook. Glen Willow Plant Exchange. It includes plants, seeds and fresh herbs of the week.", "HOURS": "All day. Fresh herbs are usually put out around 10 am.", "LINK": "https://www.facebook.com/groups/622440633206532/?hoisted_section_header_type=recently_seen&multi_permalinks=925732966210629", "CONTACT": "lindafedun62@gmail.com" }, "geometry": { "type": "Point", "coordinates": [ -123.51514, 48.43794 ] } },
{ "type": "Feature", "properties": { "NAME": "Goldstream Farmers Market", "ADDRESS": "2815 Veterans Memorial Parkway, Langford, BC V9V 3S7", "TYPE": "Market", "DESCRIPTION": "Local fruits and vegetables, assorted artisan goods", "HOURS": "Saturday (10am - 2pm) May to October", "LINK": "https://goldstreamstationmarket.ca", "CONTACT": "manager.goldstreammarket@gmail.com" }, "geometry": { "type": "Point", "coordinates": [ -123.49508, 48.4472 ] } },
{ "type": "Feature", "properties": { "NAME": "Goldstream Food Bank", "ADDRESS": "761 Station Ave, Victoria, BC V9B 2S1", "TYPE": "Food_Bank_Community_Resource", "DESCRIPTION": "Providing nutritious food hampers for people in need.", "HOURS": "Open the first three weeks of each month on: Tuesday: 9:00 AM – 12:00 PM*; Wednesday: 9:00 AM- 12:00 PM*.  * Last customer will be served at 11:45 AM, to allow for all the hampers to be given out by 12:00 PM. ", "LINK": "https://goldstreamfoodbank.org/", "CONTACT": "goldstreamfoodbank@gmail.com" }, "geometry": { "type": "Point", "coordinates": [ -123.49983, 48.44609 ] } },
{ "type": "Feature", "properties": { "NAME": "Habitat Café @ RRU", "ADDRESS": "University Dr, Colwood, BC V9B 5Y2, Habitat Café located in the Grant Building", "TYPE": "Food_Bev", "DESCRIPTION": "Café with a focus on local; healthy meals, snacks, coffee & cold drinks", "HOURS": "Mon-Fri (7:30am to 7pm)", "LINK": "https://www.royalroads.ca/campus/colwood-campus/campus-services-maps/habitat-cafe", "CONTACT": null }, "geometry": { "type": "Point", "coordinates": [ -123.47287, 48.43566 ] } },
{ "type": "Feature", "properties": { "NAME": "HOB Fine Foods", "ADDRESS": "2829 Peatt Rd, Langford, BC V9B 3V5", "TYPE": "Food_Bev", "DESCRIPTION": "Catering, Events, and Retail", "HOURS": "Tue - Sat (10:30am-6:00pm); catering available every day", "LINK": "https://www.hobfinefoods.ca/", "CONTACT": null }, "geometry": { "type": "Point", "coordinates": [ -123.50072, 48.44842 ] } },
{ "type": "Feature", "properties": { "NAME": "House Of Boateng Cafe", "ADDRESS": "2854 Peatt Rd #105, Langford, BC V9B 0W3", "TYPE": "Food_Bev", "DESCRIPTION": "Ghanian and Moroccan cuisine, haute cuisine, beverages", "HOURS": "Brunch: Mon-Sun; 9am-3pm; Dinner: Wed-Sat, 5-8:30pm", "LINK": "https://www.houseofboateng.ca", "CONTACT": "info@houseofboateng.ca" }, "geometry": { "type": "Point", "coordinates": [ -123.50194, 48.44766 ] } },
{ "type": "Feature", "properties": { "NAME": "Lifecycles/Welland Orchard", "ADDRESS": "Unit A- 808 Viewfield Rd, View Royal", "TYPE": "Community_Garden", "DESCRIPTION": "Workshops, tours, fruit harvesting", "HOURS": "Workshops Last Sunday of the month 10am-12 noon; Tours 2nd Sunday of the month 11am-12noon", "LINK": "https://lifecyclesproject.ca/our-projects/welland-community-orchard/", "CONTACT": "welland@lifecyclesproject.ca" }, "geometry": { "type": "Point", "coordinates": [ -123.39687, 48.43703 ] } },
{ "type": "Feature", "properties": { "NAME": "Luxton Fall Fair", "ADDRESS": "1040 Marwood Ave, Victoria, BC V9C 3C4", "TYPE": "Market", "DESCRIPTION": "Fall Agriculture fair", "HOURS": "Saturday & Sunday, September 27 & 28, 2025; noon to 6pm", "LINK": "https://www.luxtonfair.ca", "CONTACT": "embedded form on website" }, "geometry": { "type": "Point", "coordinates": [ -123.53216, 48.42993 ] } },
{ "type": "Feature", "properties": { "NAME": "Metchosin Farm", "ADDRESS": "542 Wootton Rd, Victoria, BC V9C 3Z4", "TYPE": "Farm", "DESCRIPTION": "Farm selling 300+ certified organic seed varieties, hard to find roots and tubers, seed potatoes, plant starts and fruit bushes. Many of which are Metchosin Farm Originals, created right here at the farm! A full selection of our seeds is available on our farm website, and customers can choose 'in-store pickup' as their shipping option to arrange collecting their order here at the farm.", "HOURS": "Daily (10am - 4pm)", "LINK": "www.metchosinfarm.ca", "CONTACT": "info@metchosinfarm.ca" }, "geometry": { "type": "Point", "coordinates": [ -123.52415, 48.37962 ] } },
{ "type": "Feature", "properties": { "NAME": "Metchosin Farmers Market", "ADDRESS": "Metchosin, 4450 Happy Valley Rd, Victoria, BC V9C 3Y3", "TYPE": "Market", "DESCRIPTION": "Selling local fruits and vegetables, assorted artisan goods", "HOURS": "Sundays, May 11/25 (Mother's Day) to Oct 26/25 (last Sunday in October)", "LINK": "https://www.metchosin.ca/community/farmers-market", "CONTACT": "metchosinfarmersmarket@gmail.com" }, "geometry": { "type": "Point", "coordinates": [ -123.53561, 48.38102 ] } },
{ "type": "Feature", "properties": { "NAME": "Metchosin Grown Society", "ADDRESS": "4495 Happy Valley Road", "TYPE": "Community_Garden", "DESCRIPTION": "We grow a variety of fresh produce, including vegetables, herbs, and fruits, with a focus on seasonal and sustainable crops that support local food security and community needs.", "HOURS": "N/A", "LINK": "https://metchosingrown.com/", "CONTACT": "therossets@shaw.ca" }, "geometry": { "type": "Point", "coordinates": [ -123.53229, 48.38054 ] } },
{ "type": "Feature", "properties": { "NAME": "Mile Zero Brewing", "ADDRESS": "4495 Happy Valley Rd, Metchosin, BC V9C 3Z3", "TYPE": "Brewery_Distillery", "DESCRIPTION": "Selling artisanal beer, other bevvies as well as pizza and light pub fare.", "HOURS": "Open daily w/various hours; check website", "LINK": "https://www.milezerobrewing.ca", "CONTACT": "email form on website (embedded)" }, "geometry": { "type": "Point", "coordinates": [ -123.53231, 48.38036 ] } },
{ "type": "Feature", "properties": { "NAME": "Nootka Rose Milling", "ADDRESS": "4480 Happy Valley Rd, Victoria, BC V9C 3Z3", "TYPE": "Market", "DESCRIPTION": "Selling stone ground organic grains", "HOURS": "Wed - Sat (10am-4pm)", "LINK": "https://www.nootkarose.ca", "CONTACT": "info@nootkarose.ca" }, "geometry": { "type": "Point", "coordinates": [ -123.53278, 48.3798 ] } },
{ "type": "Feature", "properties": { "NAME": "Northern Breeds", "ADDRESS": "2763 Rosebank road", "TYPE": "Farm", "DESCRIPTION": "Organic non-GMO - berries, leafy greens, legumes, spices, corn, tomatoes, tubers, pollinator garden, wild foraged food and medicine, Gary Oak and thornless blackberry seedlings, CBD eggs.", "HOURS": "N/A", "LINK": null, "CONTACT": "sherylongeemale@gmail.com" }, "geometry": { "type": "Point", "coordinates": [ -123.46484, 48.44042 ] } },
{ "type": "Feature", "properties": { "NAME": "Parachute Ice Cream (w/ Victoria Pie Co.)", "ADDRESS": "735 Goldstream Ave #129, Victoria, BC V9B 2X4", "TYPE": "Food_Bev", "DESCRIPTION": "Selling ice cream, sorbet, cakes, pies", "HOURS": "Daily (12pm - 8pm)", "LINK": "https://www.parachuteicecream.com", "CONTACT": "admin@parachuteicecream.com" }, "geometry": { "type": "Point", "coordinates": [ -123.49781, 48.4476 ] } },
{ "type": "Feature", "properties": { "NAME": "Parry Bay Sheep Farm", "ADDRESS": "4335 Lindholm Rd, Victoria V9C 3Y1", "TYPE": "Farm", "DESCRIPTION": "Farm selling Lamb, Mutton, Chicken, Pork, Hay, Raw Wool Fleeces", "HOURS": "Saturdays 12-3, Sundays 11-2 (Metchosin Farmers' Mkt, May-Oct)", "LINK": "https://parrybaysheepfarm.com/wordpress/", "CONTACT": "parrybayfarm@outlook.com" }, "geometry": { "type": "Point", "coordinates": [ -123.55383, 48.39162 ] } },
{ "type": "Feature", "properties": { "NAME": "Pilgrim Coffee House", "ADDRESS": "105-1910 Sooke Rd, Victoria, BC V9B 1V7", "TYPE": "Food_Bev", "DESCRIPTION": "Colwood's local coffee house serving freshly baked goods, fresh made sandwiches, and soups.", "HOURS": "Mon- Sat (8am - 4pm)", "LINK": "https://www.facebook.com/PilgrimCoffeeHouse/", "CONTACT": null }, "geometry": { "type": "Point", "coordinates": [ -123.47033, 48.4419 ] } },
{ "type": "Feature", "properties": { "NAME": "Roaming Raven Farm", "ADDRESS": "642 Taylor Road, Metchosin, BC, V9C3Y7", "TYPE": "Farm", "DESCRIPTION": "Microgreens, seasonal fruits and vegetables, eggs, meal prep kits", "HOURS": null, "LINK": "roamingravenfarm.com", "CONTACT": "roamingravenfarm@gmail.com" }, "geometry": { "type": "Point", "coordinates": [ -123.54242, 48.37024 ] } },
{ "type": "Feature", "properties": { "NAME": "Royal Bay Bakery", "ADDRESS": "3337 Metchosin Rd, Victoria, BC V9C 3C5", "TYPE": "Food_Bev", "DESCRIPTION": "Bakery selling baked goods (sweet/savory), soups, sandwiches, etc", "HOURS": "Tue - Sat (6am - 5pm)", "LINK": "https://royalbaybakery.com", "CONTACT": "web@royalbaybakery.com" }, "geometry": { "type": "Point", "coordinates": [ -123.48474, 48.41993 ] } },
{ "type": "Feature", "properties": { "NAME": "Ryes And Shine Craft Distillery", "ADDRESS": "2323 Millstream Rd #103, Victoria, BC V9B 6L2", "TYPE": "Brewery_Distillery", "DESCRIPTION": "Distillery selling locally brewed craft spirits", "HOURS": "Wed - Sat (12pm - 7pm)", "LINK": "https://www.ryesandshine.ca", "CONTACT": "email form on website (embedded)" }, "geometry": { "type": "Point", "coordinates": [ -123.50027, 48.46484 ] } },
{ "type": "Feature", "properties": { "NAME": "Salvation Army Connection Point Church and Resource Centre", "ADDRESS": "737 Goldstream Ave #103, Langford, BC V9B 2X4", "TYPE": "Food_Bank_Community_Resource", "DESCRIPTION": "Access to Bread Shelf, Free Food Fridge, and Case Workers.", "HOURS": "Monday – CLOSED; Tuesday & Thursday 9:30-3:30 (closed from 12pm-1pm); Wednesday & Friday 1pm-3:30pm", "LINK": "https://saconnectionpoint.ca/", "CONTACT": null }, "geometry": { "type": "Point", "coordinates": [ -123.49846, 48.44724 ] } },
{ "type": "Feature", "properties": { "NAME": "Sawmill Taphouse And Grill", "ADDRESS": "328 Wale Rd #102, Victoria, BC V9B 0J8", "TYPE": "Food_Bev", "DESCRIPTION": "Selling beverages, salad, pizzas, pub food", "HOURS": "Mon & Tues (1130am - 9pm), Wed - Fri (1130am - 10pm), Sat (11am - 10pm), Sun (11am - 9pm)", "LINK": "https://www.sawmilltaphouse.com", "CONTACT": null }, "geometry": { "type": "Point", "coordinates": [ -123.4696, 48.44559 ] } },
{ "type": "Feature", "properties": { "NAME": "Sea Bluff Farm", "ADDRESS": "565 Wootton Rd, Victoria, BC V9C 3Z4", "TYPE": "Farm", "DESCRIPTION": "Farm selling fruits and vegetables year round", "HOURS": "9am-6pm (sat and tues)", "LINK": "https://www.seablufffarm.com", "CONTACT": "seabluffbusi@gmail.com" }, "geometry": { "type": "Point", "coordinates": [ -123.52566, 48.38085 ] } },
{ "type": "Feature", "properties": { "NAME": "Sunrise Cottage Farm", "ADDRESS": "4652 William Head Rd, Victoria, BC V9C 3Y7", "TYPE": "Farm", "DESCRIPTION": "Farm Selling veg, nursery stock, hot sauce.", "HOURS": "Sat and Sun. April to Dec.", "LINK": null, "CONTACT": "huzohughes@gmail.com" }, "geometry": { "type": "Point", "coordinates": [ -123.53728, 48.37155 ] } },
{ "type": "Feature", "properties": { "NAME": "Table Nineteen", "ADDRESS": "643 Latoria Rd, Victoria, BC V9C 3A3", "TYPE": "Food_Bev", "DESCRIPTION": "Restaurant sellin classic clubhouse food, cocktails", "HOURS": "every day (11am - 9pm)", "LINK": "https://www.tablenineteen.com/victoria", "CONTACT": "svickaryous@golfbc.com" }, "geometry": { "type": "Point", "coordinates": [ -123.5196, 48.40311 ] } },
{ "type": "Feature", "properties": { "NAME": "The Farm @ RRU", "ADDRESS": "2005 Sooke Rd, Victoria, BC V9B 5Y2", "TYPE": "Community_Garden", "DESCRIPTION": "Research, free food security workshops, food production for community partners and students on campus.", "HOURS": "N/A", "LINK": "https://thefarmatroyalroads.ca", "CONTACT": null }, "geometry": { "type": "Point", "coordinates": [ -123.47398, 48.43428 ] } },
{ "type": "Feature", "properties": { "NAME": "The Local Food Box", "ADDRESS": "4645 William Head Rd, Victoria, BC V9C 3Y7", "TYPE": "Food_Bank_Community_Resource", "DESCRIPTION": "Community multi farm Community Supported Agriculture program/ food box subscription program. Local: vegetables & fruit, pork, chicken, lamb, eggs, honey, mushrooms, flour, flowers, microgreens", "HOURS": "Weekly pickups, from june until october, tursdays or fridays from 3:30pm-5:30pm, or saturdays from 9am-12pm", "LINK": "Thelocalfoodbox.com", "CONTACT": "thelocalfoodbox@gmail.com" }, "geometry": { "type": "Point", "coordinates": [ -123.53639, 48.37151 ] } },
{ "type": "Feature", "properties": { "NAME": "The Nest Cafe", "ADDRESS": "2311 Watkiss Way #102, Victoria, BC V8B 6J6", "TYPE": "Food_Bev", "DESCRIPTION": "Café selling coffee, tea, baked goods, cafe snacks", "HOURS": "Daily (8am - 4pm)", "LINK": "https://www.facebook.com/thenextcafevictoriabc/", "CONTACT": null }, "geometry": { "type": "Point", "coordinates": [ -123.44707, 48.46491 ] } },
{ "type": "Feature", "properties": { "NAME": "The Rose Pub", "ADDRESS": "592 Ledsham Rd, Victoria, BC V9B 1W8", "TYPE": "Food_Bev", "DESCRIPTION": "Pub selling pub food, draft brew, cocktails", "HOURS": "Wed & Thu (1130am - 930pm), Fri & Sat (1130am - 11pm), Sun (1130 - 830pm), Closed Monday & Tuesday", "LINK": "https://www.therosepublichouse.com", "CONTACT": "email form on website (embedded)" }, "geometry": { "type": "Point", "coordinates": [ -123.48816, 48.4355 ] } },
{ "type": "Feature", "properties": { "NAME": "Umi Nami Farm", "ADDRESS": "961 Matheson Lake Park Rd, Victoria, BC V9C 4G9", "TYPE": "Farm", "DESCRIPTION": "Japanese vegetables including daikon, Japanese greens and turnips, Japanese eggplants, cucumbers and peppers; fruits such as apples and plums; some Western produce such as kale, chard, lettuce, tomatoes and carrots", "HOURS": "Box program pickup is Wed 9am - 5pm and Saturday 9am - 12pm", "LINK": "uminamifarm.com", "CONTACT": "uminamifarm@gmail.com" }, "geometry": { "type": "Point", "coordinates": [ -123.5833, 48.35317 ] } },
{ "type": "Feature", "properties": { "NAME": "Urban Forage", "ADDRESS": "496a Chapel Heights Drive (home office as we are online only)", "TYPE": "Food_Bev", "DESCRIPTION": "Our artisan heat & serve meals are crafted with care and then immediately frozen to preserve their flavour, freshness and nutrition. They are made using perfectly honed recipes with whole foods that are sourced from as close to home as possible. We partner with a number of local farmers and artisans working with the seasons to create amazing food. This is our promise to you. You’re gonna love it!", "HOURS": "N/A Online Only", "LINK": "www.urbanforage.ca", "CONTACT": "chef@urbanforage.ca" }, "geometry": { "type": "Point", "coordinates": [ -123.50729, 48.39518 ] } },
{ "type": "Feature", "properties": { "NAME": "White's Greens", "ADDRESS": "4290 Metchosin Rd, Victoria, BC V9C 3Z4", "TYPE": "Farm", "DESCRIPTION": "Farm selling fruits, vegetables, eggs and sometimes goat, beef and/or chicken", "HOURS": "Sat (10am-4pm)", "LINK": "https://www.facebook.com/people/Whites-Greens/100068700320659/", "CONTACT": "thinkericwhite@gmail.com" }, "geometry": { "type": "Point", "coordinates": [ -123.52902, 48.38262 ] } },
{ "type": "Feature", "properties": { "NAME": "Wind Whipped Farm", "ADDRESS": "Wind Whipped Farm, 4645 B, William Head Rd, Victoria, BC V9C 3Y7", "TYPE": "Farm", "DESCRIPTION": "Farm selling a wide range of vegetables and some fruit. Our produce is available through The Local Food Box program and at the Wind Whipped Farmstand", "HOURS": "From June until the end of October our farmstand are open everday from 10am to 5 pm. From November until the end of May our farmstand is open Friday to Sunday, from 10 am until 5pm", "LINK": "https://www.thelocalfoodbox.com/wind-whipped-farm/", "CONTACT": "windwhippedfarm@gmail.com" }, "geometry": { "type": "Point", "coordinates": [ -123.53632, 48.37159 ] } }
]
}
