{"type":"FeatureCollection","name":"VictoriaDrinkingFountains_4","crs":{"type":"name","properties":{"name":"urn:ogc:def:crs:OGC:1.3:CRS84"}},"features":[{"type":"Feature","properties":{"OBJECTID":"1","InfrastructureID":"DRF1","LifecycleStatus":"ACT","Condition":4.0,"InstallDate":"1989-01-01T16:00:00.000","FountainType":"drinking fountain","LocationType":"park","LocationName":"Little Ross Bay Green","Owner":"VC","OwnerNotes":"City of Victoria","Custodian":"VC","CustodianNotes":"Parks Department","Uniformat":"G2040185"},"geometry":{"type":"Point","coordinates":[-123.3367,48.41]}},{"type":"Feature","properties":{"OBJECTID":"2","InfrastructureID":"DRF2","LifecycleStatus":"ACT","Condition":4.0,"InstallDate":"2008-11-13T16:00:00.000","FountainType":"drinking fountain","LocationType":"park","LocationName":"Hollywood Park","Owner":"VC","OwnerNotes":"City of Victoria","Custodian":"VC","CustodianNotes":"Parks Department","Uniformat":"G2040185"},"geometry":{"type":"Point","coordinates":[-123.3348,48.4134]}},{"type":"Feature","properties":{"OBJECTID":"3","InfrastructureID":"DRF3","LifecycleStatus":"ACT","Condition":2.0,"InstallDate":"1997-05-31T17:00:00.000","FountainType":"drinking fountain","LocationType":"park","LocationName":"Pemberton Park","Owner":"VC","OwnerNotes":"City of Victoria","Custodian":"VC","CustodianNotes":"Parks Department","Uniformat":"G2040185"},"geometry":{"type":"Point","coordinates":[-123.3275,48.4194]}},{"type":"Feature","properties":{"OBJECTID":"4","InfrastructureID":"DRF4","LifecycleStatus":"ACT","Condition":3.0,"InstallDate":"2008-05-31T17:00:00.000","FountainType":"drinking fountain","LocationType":"park","LocationName":"Hillside Park","Owner":"VC","OwnerNotes":"City of Victoria","Custodian":"VC","CustodianNotes":"Parks Department","Uniformat":"G2040185"},"geometry":{"type":"Point","coordinates":[-123.3507,48.4411]}},{"type":"Feature","properties":{"OBJECTID":"5","InfrastructureID":"DRF5","LifecycleStatus":"ACT","Condition":3.0,"InstallDate":"1999-05-31T17:00:00.000","FountainType":"drinking fountain","LocationType":"park","LocationName":"Irving Park","Owner":"VC","OwnerNotes":"City of Victoria","Custodian":"VC","CustodianNotes":"Parks Department","Uniformat":"G2040185"},"geometry":{"type":"Point","coordinates":[-123.3737,48.4167]}},{"type":"Feature","properties":{"OBJECTID":"6","InfrastructureID":"DRF6","LifecycleStatus":"ACT","Condition":4.0,"InstallDate":"2009-12-31T16:00:00.000","FountainType":"drinking fountain","LocationType":"park","LocationName":"Fisherman's Wharf Park","Owner":"VC","OwnerNotes":"City of Victoria","Custodian":"VC","CustodianNotes":"Parks Department","Uniformat":"G2040185"},"geometry":{"type":"Point","coordinates":[-123.383,48.4221]}},{"type":"Feature","properties":{"OBJECTID":"7","InfrastructureID":"DRF7","LifecycleStatus":"ACT","Condition":2.0,"InstallDate":"2003-11-25T16:00:00.000","FountainType":"drinking fountain","LocationType":"park","LocationName":"Triangle Park","Owner":"VC","OwnerNotes":"City of Victoria","Custodian":"VC","CustodianNotes":"Parks Department","Uniformat":"G2040185"},"geometry":{"type":"Point","coordinates":[-123.3795,48.4318]}},{"type":"Feature","properties":{"OBJECTID":"8","InfrastructureID":"DRF8","LifecycleStatus":"ACT","Condition":3.0,"InstallDate":"2007-11-25T16:00:00.000","FountainType":"drinking fountain","LocationType":"park","LocationName":"Franklin Green","Owner":"VC","OwnerNotes":"City of Victoria","Custodian":"VC","CustodianNotes":"Parks Department","Uniformat":"G2040185"},"geometry":{"type":"Point","coordinates":[-123.3542,48.428]}},{"type":"Feature","properties":{"OBJECTID":"9","InfrastructureID":"DRF9","LifecycleStatus":"ACT","Condition":2.0,"InstallDate":"1975-05-31T17:00:00.000","FountainType":"drinking fountain","LocationType":"park","LocationName":"Summit Park","Owner":"VC","OwnerNotes":"City of Victoria","Custodian":"VC","CustodianNotes":"Parks Department","Uniformat":"G2040185"},"geometry":{"type":"Point","coordinates":[-123.3554,48.4454]}},{"type":"Feature","properties":{"OBJECTID":"10","InfrastructureID":"DRF10","LifecycleStatus":"ACT","Condition":3.0,"InstallDate":"2011-11-14T16:00:00.000","FountainType":"drinking fountain","LocationType":"park","LocationName":"Oswald Park","Owner":"VC","OwnerNotes":"City of Victoria","Custodian":"VC","CustodianNotes":"Parks Department","Uniformat":"G2040185"},"geometry":{"type":"Point","coordinates":[-123.3445,48.4448]}},{"type":"Feature","properties":{"OBJECTID":"11","InfrastructureID":"DRF11","LifecycleStatus":"ACT","Condition":2.0,"InstallDate":"2003-12-04T16:00:00.000","FountainType":"drinking fountain","LocationType":"park","LocationName":"Transcanada Parkette","Owner":"VC","OwnerNotes":"City of Victoria","Custodian":"VC","CustodianNotes":"Parks Department","Uniformat":"G2040185"},"geometry":{"type":"Point","coordinates":[-123.3831,48.4376]}},{"type":"Feature","properties":{"OBJECTID":"12","InfrastructureID":"DRF12","LifecycleStatus":"ACT","Condition":3.0,"InstallDate":"2003-05-31T17:00:00.000","FountainType":"drinking fountain","LocationType":"park","LocationName":"William Stevenson Memorial Park","Owner":"VC","OwnerNotes":"City of Victoria","Custodian":"VC","CustodianNotes":"Parks Department","Uniformat":"G2040185"},"geometry":{"type":"Point","coordinates":[-123.3476,48.4314]}},{"type":"Feature","properties":{"OBJECTID":"13","InfrastructureID":"DRF13","LifecycleStatus":"ACT","Condition":4.0,"InstallDate":"2009-01-21T16:00:00.000","FountainType":"drinking fountain","LocationType":"park","LocationName":"Stadacona Park","Owner":"VC","OwnerNotes":"City of Victoria","Custodian":"VC","CustodianNotes":"Parks Department","Uniformat":"G2040185"},"geometry":{"type":"Point","coordinates":[-123.3394,48.427]}},{"type":"Feature","properties":{"OBJECTID":"14","InfrastructureID":"DRF14","LifecycleStatus":"ACT","Condition":3.0,"InstallDate":"2016-05-31T17:00:00.000","FountainType":"drinking fountain","LocationType":"park","LocationName":"Victoria West Park","Owner":"VC","OwnerNotes":"City of Victoria","Custodian":"VC","CustodianNotes":"Parks Department","Uniformat":"G2040185"},"geometry":{"type":"Point","coordinates":[-123.3832,48.4317]}},{"type":"Feature","properties":{"OBJECTID":"15","InfrastructureID":"DRF15","LifecycleStatus":"ACT","Condition":2.0,"InstallDate":"1993-11-28T16:00:00.000","FountainType":"drinking fountain","LocationType":"park","LocationName":"Cecelia Ravine Park","Owner":"VC","OwnerNotes":"City of Victoria","Custodian":"VC","CustodianNotes":"Parks Department","Uniformat":"G2040185"},"geometry":{"type":"Point","coordinates":[-123.3789,48.4448]}},{"type":"Feature","properties":{"OBJECTID":"16","InfrastructureID":"DRF16","LifecycleStatus":"ACT","Condition":4.0,"InstallDate":"2013-12-04T16:00:00.000","FountainType":"drinking fountain","LocationType":"park","LocationName":"Point Ellice Park","Owner":"VC","OwnerNotes":"City of Victoria","Custodian":"VC","CustodianNotes":"Parks Department","Uniformat":"G2040185"},"geometry":{"type":"Point","coordinates":[-123.3781,48.4331]}},{"type":"Feature","properties":{"OBJECTID":"17","InfrastructureID":"DRF17","LifecycleStatus":"ACT","Condition":3.0,"InstallDate":"1998-11-29T16:00:00.000","FountainType":"drinking fountain","LocationType":"park","LocationName":"Rainbow Park","Owner":"VC","OwnerNotes":"City of Victoria","Custodian":"VC","CustodianNotes":"Parks Department","Uniformat":"G2040185"},"geometry":{"type":"Point","coordinates":[-123.3888,48.4282]}},{"type":"Feature","properties":{"OBJECTID":"18","InfrastructureID":"DRF18","LifecycleStatus":"ACT","Condition":4.0,"InstallDate":"1998-11-25T16:00:00.000","FountainType":"drinking fountain","LocationType":"park","LocationName":"Lime Bay Park","Owner":"VC","OwnerNotes":"City of Victoria","Custodian":"VC","CustodianNotes":"Parks Department","Uniformat":"G2040185"},"geometry":{"type":"Point","coordinates":[-123.3833,48.4278]}},{"type":"Feature","properties":{"OBJECTID":"19","InfrastructureID":"DRF19","LifecycleStatus":"ACT","Condition":4.0,"InstallDate":"2016-12-12T16:00:00.000","FountainType":"drinking fountain","LocationType":"park","LocationName":"Clover Point Park","Owner":"VC","OwnerNotes":"City of Victoria","Custodian":"VC","CustodianNotes":"Parks Department","Uniformat":"G2040185"},"geometry":{"type":"Point","coordinates":[-123.3498,48.4044]}},{"type":"Feature","properties":{"OBJECTID":"20","InfrastructureID":"DRF20","LifecycleStatus":"ACT","Condition":3.0,"InstallDate":"1998-12-03T16:00:00.000","FountainType":"drinking fountain","LocationType":"park","LocationName":"Beacon Hill Park","Owner":"VC","OwnerNotes":"City of Victoria","Custodian":"VC","CustodianNotes":"Parks Department","Uniformat":"G2040185"},"geometry":{"type":"Point","coordinates":[-123.3629,48.4124]}},{"type":"Feature","properties":{"OBJECTID":"21","InfrastructureID":"DRF21","LifecycleStatus":"ACT","Condition":3.0,"InstallDate":"2013-05-31T17:00:00.000","FountainType":"drinking fountain","LocationType":"park","LocationName":"Fern Street Playlot","Owner":"VC","OwnerNotes":"City of Victoria","Custodian":"VC","CustodianNotes":"Parks Department","Uniformat":"G2040185"},"geometry":{"type":"Point","coordinates":[-123.3334,48.4291]}},{"type":"Feature","properties":{"OBJECTID":"22","InfrastructureID":"DRF22","LifecycleStatus":"ACT","Condition":3.0,"InstallDate":"2009-05-31T17:00:00.000","FountainType":"drinking fountain","LocationType":"park","LocationName":"Redfern Park","Owner":"VC","OwnerNotes":"City of Victoria","Custodian":"VC","CustodianNotes":"Parks Department","Uniformat":"G2040185"},"geometry":{"type":"Point","coordinates":[-123.3247,48.4292]}},{"type":"Feature","properties":{"OBJECTID":"23","InfrastructureID":"DRF23","LifecycleStatus":"ACT","Condition":3.0,"InstallDate":"1998-11-27T16:00:00.000","FountainType":"drinking fountain","LocationType":"park","LocationName":"Holland Point Park","Owner":"VC","OwnerNotes":"City of Victoria","Custodian":"VC","CustodianNotes":"Parks Department","Uniformat":"G2040185"},"geometry":{"type":"Point","coordinates":[-123.3783,48.412]}},{"type":"Feature","properties":{"OBJECTID":"24","InfrastructureID":"DRF24","LifecycleStatus":"ACT","Condition":4.0,"InstallDate":"2004-02-05T16:00:00.000","FountainType":"drinking fountain","LocationType":"park","LocationName":"Beacon Hill Park","Owner":"VC","OwnerNotes":"City of Victoria","Custodian":"VC","CustodianNotes":"Parks Department","Uniformat":"G2040185"},"geometry":{"type":"Point","coordinates":[-123.3661,48.4082]}},{"type":"Feature","properties":{"OBJECTID":"25","InfrastructureID":"DRF25","LifecycleStatus":"ACT","Condition":4.0,"InstallDate":"2015-05-31T17:00:00.000","FountainType":"drinking fountain","LocationType":"park","LocationName":"Beacon Hill Park","Owner":"VC","OwnerNotes":"City of Victoria","Custodian":"VC","CustodianNotes":"Parks Department","Uniformat":"G2040187"},"geometry":{"type":"Point","coordinates":[-123.3631,48.4142]}},{"type":"Feature","properties":{"OBJECTID":"26","InfrastructureID":"DRF26","LifecycleStatus":"ACT","Condition":3.0,"InstallDate":"2008-12-01T16:00:00.000","FountainType":"drinking fountain","LocationType":"park","LocationName":"Beacon Hill Park","Owner":"VC","OwnerNotes":"City of Victoria","Custodian":"VC","CustodianNotes":"Parks Department","Uniformat":"G2040185"},"geometry":{"type":"Point","coordinates":[-123.3579,48.4117]}},{"type":"Feature","properties":{"OBJECTID":"27","InfrastructureID":"DRF27","LifecycleStatus":"ACT","Condition":4.0,"InstallDate":"2005-12-03T16:00:00.000","FountainType":"drinking fountain","LocationType":"park","LocationName":"Beacon Hill Park","Owner":"VC","OwnerNotes":"City of Victoria","Custodian":"VC","CustodianNotes":"Parks Department","Uniformat":"G2040185"},"geometry":{"type":"Point","coordinates":[-123.3668,48.4125]}},{"type":"Feature","properties":{"OBJECTID":"28","InfrastructureID":"DRF28","LifecycleStatus":"ACT","Condition":3.0,"InstallDate":"2015-05-31T17:00:00.000","FountainType":"drinking fountain","LocationType":"park","LocationName":"Clawthorpe Avenue Park","Owner":"VC","OwnerNotes":"City of Victoria","Custodian":"VC","CustodianNotes":"Parks Department","Uniformat":"G2040185"},"geometry":{"type":"Point","coordinates":[-123.3401,48.448]}},{"type":"Feature","properties":{"OBJECTID":"29","InfrastructureID":"DRF29","LifecycleStatus":"ACT","Condition":4.0,"InstallDate":"1999-02-03T16:00:00.000","FountainType":"drinking fountain","LocationType":"block","LocationName":"1200 block Douglas St","Owner":"VC","OwnerNotes":"City of Victoria","Custodian":"VC","CustodianNotes":"Parks Department","Uniformat":"G2040185"},"geometry":{"type":"Point","coordinates":[-123.3648,48.4262]}},{"type":"Feature","properties":{"OBJECTID":"30","InfrastructureID":"DRF31","LifecycleStatus":"ACT","Condition":5.0,"InstallDate":"2016-05-31T17:00:00.000","FountainType":"drinking fountain","LocationType":"park","LocationName":"Topaz Park","Owner":"VC","OwnerNotes":"City of Victoria","Custodian":"VC","CustodianNotes":"Parks Department","Uniformat":"G2040187"},"geometry":{"type":"Point","coordinates":[-123.3642,48.4455]}},{"type":"Feature","properties":{"OBJECTID":"31","InfrastructureID":"DRF431","LifecycleStatus":"ACT","Condition":1.0,"InstallDate":"1998-11-29T16:00:00.000","FountainType":"drinking fountain","LocationType":"park","LocationName":"Songhees Park","Owner":"VC","OwnerNotes":"City of Victoria","Custodian":"VC","CustodianNotes":"Parks Department","Uniformat":"G2040185"},"geometry":{"type":"Point","coordinates":[-123.3764,48.4259]}},{"type":"Feature","properties":{"OBJECTID":"32","InfrastructureID":"DRF433","LifecycleStatus":"ACT","Condition":4.0,"InstallDate":"2016-05-31T17:00:00.000","FountainType":"drinking fountain","LocationType":"park","LocationName":"Victoria West Park","Owner":"VC","OwnerNotes":"City of Victoria","Custodian":"VC","CustodianNotes":"Parks Department","Uniformat":"G2040185"},"geometry":{"type":"Point","coordinates":[-123.3814,48.4306]}},{"type":"Feature","properties":{"OBJECTID":"33","InfrastructureID":"DRF831","LifecycleStatus":"ACT","Condition":3.0,"InstallDate":"2006-11-28T16:00:00.000","FountainType":"drinking fountain","LocationType":"park","LocationName":"Holland Point Park","Owner":"VC","OwnerNotes":"City of Victoria","Custodian":"VC","CustodianNotes":"Parks Department","Uniformat":"G2040185"},"geometry":{"type":"Point","coordinates":[-123.3742,48.4101]}},{"type":"Feature","properties":{"OBJECTID":"34","InfrastructureID":"DRF1231","LifecycleStatus":"ACT","Condition":1.0,"InstallDate":"2018-10-03T17:00:00.000","FountainType":"drinking fountain","LocationType":"block","LocationName":"800 block Douglas St","Owner":"VC","OwnerNotes":"City of Victoria","Custodian":"VC","CustodianNotes":"Parks Department","Uniformat":"G2040185"},"geometry":{"type":"Point","coordinates":[-123.3659,48.4232]}},{"type":"Feature","properties":{"OBJECTID":"35","InfrastructureID":"DRF2031","LifecycleStatus":"ACT","Condition":4.0,"InstallDate":"2008-12-18T16:00:00.000","FountainType":"drinking fountain","LocationType":"block","LocationName":"Galloping Goose Trail","Owner":"VC","OwnerNotes":"City of Victoria","Custodian":"VC","CustodianNotes":"Parks Department","Uniformat":"G2040185"},"geometry":{"type":"Point","coordinates":[-123.3804,48.4415]}},{"type":"Feature","properties":{"OBJECTID":"36","InfrastructureID":"DRF2431","LifecycleStatus":"ACT","Condition":4.0,"InstallDate":"2009-02-03T16:00:00.000","FountainType":"drinking fountain","LocationType":"park","LocationName":"Centennial Square","Owner":"VC","OwnerNotes":"City of Victoria","Custodian":"VC","CustodianNotes":"Parks Department","Uniformat":"G2040185"},"geometry":{"type":"Point","coordinates":[-123.366,48.4286]}},{"type":"Feature","properties":{"OBJECTID":"37","InfrastructureID":"DRF32","LifecycleStatus":"ACT","Condition":5.0,"InstallDate":"2019-05-31T17:00:00.000","FountainType":"drinking fountain","LocationType":"block","LocationName":"800 block Wharf St","Owner":"VC","OwnerNotes":"City of Victoria","Custodian":"VC","CustodianNotes":"Parks Department","Uniformat":"G2040185"},"geometry":{"type":"Point","coordinates":[-123.3686,48.4227]}},{"type":"Feature","properties":{"OBJECTID":"38","InfrastructureID":"DRF33","LifecycleStatus":"ACT","Condition":5.0,"InstallDate":"2019-05-31T17:00:00.000","FountainType":"drinking fountain","LocationType":"block","LocationName":"900 block Yates St","Owner":"VC","OwnerNotes":"City of Victoria","Custodian":"VC","CustodianNotes":"Public Works","Uniformat":"G2040185"},"geometry":{"type":"Point","coordinates":[-123.3578,48.4255]}},{"type":"Feature","properties":{"OBJECTID":"39","InfrastructureID":"DRF34","LifecycleStatus":"ACT","Condition":5.0,"InstallDate":"2019-05-31T17:00:00.000","FountainType":"drinking fountain","LocationType":"park","LocationName":"Victoria West Park","Owner":"VC","OwnerNotes":"City of Victoria","Custodian":"VC","CustodianNotes":"Parks Department","Uniformat":"G2040185"},"geometry":{"type":"Point","coordinates":[-123.3816,48.4322]}},{"type":"Feature","properties":{"OBJECTID":"40","InfrastructureID":"DRF4031","LifecycleStatus":"ACT","Condition":5.0,"InstallDate":"2020-07-22T17:00:00.000","FountainType":"drinking fountain","LocationType":"park","LocationName":"Central Park","Owner":"VC","OwnerNotes":"City of Victoria","Custodian":"VC","CustodianNotes":"Parks Department","Uniformat":"G2040186"},"geometry":{"type":"Point","coordinates":[-123.3573,48.4325]}},{"type":"Feature","properties":{"OBJECTID":"41","InfrastructureID":"DRF4431","LifecycleStatus":"ACT","Condition":5.0,"InstallDate":"2020-07-23T17:00:00.000","FountainType":"drinking fountain","LocationType":"park","LocationName":"Cecelia Ravine Park","Owner":"VC","OwnerNotes":"City of Victoria","Custodian":"VC","CustodianNotes":"Facilities","Uniformat":"G2040185"},"geometry":{"type":"Point","coordinates":[-123.3795,48.4453]}},{"type":"Feature","properties":{"OBJECTID":"42","InfrastructureID":"DRF4432","LifecycleStatus":"ACT","Condition":5.0,"InstallDate":"2020-11-04T16:00:00.000","FountainType":"drinking fountain","LocationType":"block","LocationName":"300 block Dallas Rd","Owner":"VC","OwnerNotes":"City of Victoria","Custodian":"VC","CustodianNotes":"Public Works","Uniformat":"G2040185"},"geometry":{"type":"Point","coordinates":[-123.3816,48.4138]}},{"type":"Feature","properties":{"OBJECTID":"43","InfrastructureID":"DRF4433","LifecycleStatus":"ACT","Condition":5.0,"InstallDate":"2020-08-04T17:00:00.000","FountainType":"drinking fountain","LocationType":"park","LocationName":"Stadacona Park","Owner":"VC","OwnerNotes":"City of Victoria","Custodian":"VC","CustodianNotes":"Facilities","Uniformat":"G2040187"},"geometry":{"type":"Point","coordinates":[-123.3394,48.4273]}},{"type":"Feature","properties":{"OBJECTID":"44","InfrastructureID":"DRF4434","LifecycleStatus":"ACT","Condition":5.0,"InstallDate":"2020-08-04T17:00:00.000","FountainType":"drinking fountain","LocationType":"park","LocationName":"Topaz Park","Owner":"VC","OwnerNotes":"City of Victoria","Custodian":"VC","CustodianNotes":"Facilities","Uniformat":"G2040187"},"geometry":{"type":"Point","coordinates":[-123.3623,48.4446]}},{"type":"Feature","properties":{"OBJECTID":"45","InfrastructureID":"DRF4435","LifecycleStatus":"ACT","Condition":5.0,"InstallDate":"2020-02-04T16:00:00.000","FountainType":"drinking fountain","LocationType":"block","LocationName":"1000 block Cook St","Owner":"VC","OwnerNotes":"City of Victoria","Custodian":"VC","CustodianNotes":"Facilities","Uniformat":"G2040186"},"geometry":{"type":"Point","coordinates":[-123.354,48.423]}},{"type":"Feature","properties":{"OBJECTID":"46","InfrastructureID":"DRF4436","LifecycleStatus":"ACT","Condition":5.0,"InstallDate":"2021-03-23T17:00:00.000","FountainType":"drinking fountain","LocationType":"park","LocationName":"Clover Point Park","Owner":"VC","OwnerNotes":"City of Victoria","Custodian":"CRD","CustodianNotes":"CRD/KCL contracting","Uniformat":"G2040186"},"geometry":{"type":"Point","coordinates":[-123.3495,48.4057]}},{"type":"Feature","properties":{"OBJECTID":"47","InfrastructureID":"DRF4437","LifecycleStatus":"ACT","Condition":5.0,"InstallDate":"2022-03-29T17:00:00.000","FountainType":"drinking fountain","LocationType":"park","LocationName":"Ross Bay Cemetery","Owner":"VC","OwnerNotes":"City of Victoria","Custodian":"VC","CustodianNotes":"Maintained by Facilities","Uniformat":"G2040186"},"geometry":{"type":"Point","coordinates":[-123.3442,48.4094]}},{"type":"Feature","properties":{"OBJECTID":"48","InfrastructureID":"DRF4438","LifecycleStatus":"ACT","Condition":5.0,"InstallDate":"2022-02-15T16:00:00.000","FountainType":"drinking fountain","LocationType":"park","LocationName":"Beacon Hill Park","Owner":"VC","OwnerNotes":"City of Victoria","Custodian":"VC","CustodianNotes":"Maintained by Facilities","Uniformat":"G2040186"},"geometry":{"type":"Point","coordinates":[-123.3581,48.4083]}},{"type":"Feature","properties":{"OBJECTID":"49","InfrastructureID":"DRF4439","LifecycleStatus":"ACT","Condition":5.0,"InstallDate":"2022-03-15T17:00:00.000","FountainType":"drinking fountain","LocationType":"park","LocationName":"Beacon Hill Park","Owner":"VC","OwnerNotes":"City of Victoria","Custodian":"VC","CustodianNotes":"Maintained by Facilities","Uniformat":"G2040186"},"geometry":{"type":"Point","coordinates":[-123.3585,48.4116]}},{"type":"Feature","properties":{"OBJECTID":"50","InfrastructureID":"DRF4440","LifecycleStatus":"ACT","Condition":5.0,"InstallDate":"2022-03-29T17:00:00.000","FountainType":"drinking fountain","LocationType":"park","LocationName":"Holland Point Park","Owner":"VC","OwnerNotes":"City of Victoria","Custodian":"VC","CustodianNotes":"Maintained by Facilities","Uniformat":"G2040186"},"geometry":{"type":"Point","coordinates":[-123.375,48.4105]}}]}